time,command,vx,vy,vz,yawRate,x,y,z,roll,pitch,yaw,lat,lon,alt
1770645165.3302786,takeoff,0.0,0.0,0.0,0.0,0.0,0.0,-9.934345245361328,0.0,0.0,0.0,47.641467999997424,-122.140165,131.8564910888672
1770645165.3876872,idle,0.0,0.0,0.0,0.0,0.0,0.0,-9.92160415649414,0.0,0.0,0.0,47.641467999997424,-122.140165,131.8893280029297
1770645165.4511607,idle,0.0,0.0,0.0,0.0,0.0,0.0,-9.91789436340332,0.0,0.0,0.0,47.641467999997424,-122.140165,131.92236328125
1770645165.5142376,idle,0.0,0.0,0.0,0.0,0.0,0.0,-9.881425857543945,0.0,0.0,0.0,47.641467999997424,-122.140165,131.93603515625
1770645165.5763023,idle,0.0,0.0,0.0,0.0,0.0,0.0,-9.859699249267578,0.0,0.0,0.0,47.641467999997424,-122.140165,131.9305419921875
1770645165.63876,idle,0.0,0.0,0.0,0.0,0.0,0.0,-9.840181350708008,0.0,0.0,0.0,47.641467999997424,-122.140165,131.91213989257812
1770645165.7000046,idle,0.0,0.0,0.0,0.0,0.0,0.0,-9.82106876373291,0.0,0.0,0.0,47.641467999997424,-122.140165,131.8907012939453
1770645165.7626388,idle,0.0,0.0,0.0,0.0,0.0,0.0,-9.807198524475098,0.0,0.0,0.0,47.641467999997424,-122.140165,131.86952209472656
1770645165.824779,idle,0.0,0.0,0.0,0.0,0.0,0.0,-9.7903470993042,0.0,0.0,0.0,47.641467999997424,-122.140165,131.8494110107422
1770645165.8872473,idle,0.0,0.0,0.0,0.0,0.0,0.0,-9.775345802307129,0.0,0.0,0.0,47.641467999997424,-122.140165,131.83055114746094
1770645165.9510639,idle,0.0,0.0,0.0,0.0,0.0,0.0,-9.760690689086914,0.0,0.0,0.0,47.64146799999743,-122.140165,131.8129119873047
1770645166.0138042,idle,0.0,0.0,0.0,0.0,0.0,0.0,-9.747044563293457,0.0,0.0,0.0,47.641467999997424,-122.140165,131.7964324951172
1770645166.076378,idle,0.0,0.0,0.0,0.0,0.0,0.0,-9.734341621398926,0.0,0.0,0.0,47.641467999997424,-122.140165,131.78103637695312
1770645166.1402767,idle,0.0,0.0,0.0,0.0,0.0,0.0,-9.723029136657715,0.0,0.0,0.0,47.641467999997424,-122.140165,131.7666473388672
1770645166.2028542,idle,0.0,0.0,0.0,0.0,0.0,0.0,-9.712949752807617,0.0,0.0,0.0,47.641467999997424,-122.140165,131.7532196044922
1770645166.2663019,idle,0.0,0.0,0.0,0.0,0.0,0.0,-9.704879760742188,0.0,0.0,0.0,47.641467999997424,-122.140165,131.7406768798828
1770645166.3275642,idle,0.0,0.0,0.0,0.0,0.0,0.0,-9.69336223602295,0.0,0.0,0.0,47.641467999997424,-122.140165,131.72894287109375
1770645166.3905494,idle,0.0,0.0,0.0,0.0,0.0,0.0,-9.68553638458252,0.0,0.0,0.0,47.641467999997424,-122.140165,131.71800231933594
1770645166.45317,idle,0.0,0.0,0.0,0.0,0.0,0.0,-9.677801132202148,0.0,0.0,0.0,47.641467999997424,-122.140165,131.707763671875
1770645166.5167267,idle,0.0,0.0,0.0,0.0,0.0,0.0,-9.669498443603516,0.0,0.0,0.0,47.641467999997424,-122.140165,131.69821166992188
1770645166.5784094,idle,0.0,0.0,0.0,0.0,0.0,0.0,-9.663087844848633,0.0,0.0,0.0,47.641467999997424,-122.140165,131.68927001953125
1770645166.639753,forward,50,0.0,0.0,0.0,0.0,0.0,-9.656750679016113,0.0,0.0,0.0,47.641467999997424,-122.140165,131.68092346191406
1770645166.7010882,forward,50,0.0,0.0,0.0,0.00029488158179447055,8.075066629904468e-15,-9.650835990905762,-0.1122660538882827,3.966179853087718e-20,6.35538557918372e-11,47.641467999997424,-122.140165,131.67312622070312
1770645166.763248,forward,50,0.0,0.0,0.0,0.0055519710294902325,3.864450263697111e-13,-9.660210609436035,-0.25013575110812286,-1.1980479775627324e-18,1.4024814299506623e-10,47.641467999997424,-122.140165,131.66583251953125
1770645166.8260639,forward,50,0.0,0.0,0.0,0.027072420343756676,2.9717213932689557e-12,-9.692842483520508,-0.36606108182673475,2.6333759288623478e-18,2.3751984223208565e-10,47.641467999997424,-122.140165,131.6590118408203
1770645166.8944778,forward,50,0.0,0.0,0.0,0.0756940171122551,1.1394106144702043e-11,-9.750712394714355,-0.44266686263970967,2.713826067684544e-18,5.620455476732203e-10,47.641468000045386,-122.140165,131.65237426757812
1770645166.9534264,forward,50,0.0,0.0,0.0,0.1400013417005539,2.6299455668787886e-11,-9.815348625183105,-0.4837924094560884,-5.276049034542264e-18,6.511734987439982e-10,47.64146802292263,-122.140165,131.65467834472656
1770645167.0160952,forward,50,0.0,0.0,0.0,0.23353032767772675,5.381930318071326e-11,-9.898442268371582,-0.5129487343615984,4.2865138919570484e-11,4.79290190512741e-10,47.641468150841156,-122.140165,131.6783905029297
1770645167.079004,forward,50,0.0,0.0,0.0,0.36154624819755554,9.946621998269123e-11,-10.000864028930664,-0.5331530836785081,2.5346669119920617e-10,1.4918264097454594e-10,47.64146845739928,-122.140165,131.72279357910156
1770645167.141027,forward,50,0.0,0.0,0.0,0.5206964612007141,1.6514359324482086e-10,-10.117349624633789,-0.5463468282678534,5.718712297924564e-10,-7.913509620702693e-18,47.64146899021737,-122.140165,131.7864532470703
1770645167.2027152,forward,50,0.0,0.0,0.0,0.7110409140586853,2.5284946358894445e-10,-10.246405601501465,-0.55496433790644,9.345861419461435e-10,-3.6874911871762865e-17,47.64146977802753,-122.140165,131.86778259277344
1770645167.267385,forward,50,0.0,0.0,0.0,0.8987920880317688,3.4657041125818466e-10,-10.365911483764648,-0.5599284865358782,1.317207731627004e-09,-1.6620176876065293e-17,47.641470836979984,-122.140165,131.96517944335938
1770645167.3281481,forward,50,0.0,0.0,0.0,1.1711630821228027,4.921987817319007e-10,-10.528986930847168,-0.5641288019264261,1.901648877054708e-09,1.48390387638911e-17,47.641472174764424,-122.140165,132.07713317871094
1770645167.3906083,forward,50,0.0,0.0,0.0,1.3409086465835571,5.876572006791037e-10,-10.625638008117676,-0.5657666656428822,2.251288348318011e-09,2.5380659637137937e-17,47.64147379337089,-122.14016499999998,132.20217895507812
1770645167.4530356,forward,50,0.0,0.0,0.0,1.7137303352355957,8.076704860471295e-10,-10.826996803283691,-0.5679919384082653,2.8779007052595456e-09,-3.9561446499257644e-17,47.64147569095738,-122.140165,132.3387908935547
1770645167.5166075,forward,50,0.0,0.0,0.0,2.096163511276245,1.0459003663143562e-09,-11.020459175109863,-0.5692270617078925,3.4794028141252847e-09,-5.3583317242210284e-17,47.64147786314755,-122.14016499999998,132.48550415039062
1770645167.5776641,forward,50,0.0,0.0,0.0,2.4241113662719727,1.2590067877127353e-09,-11.177388191223145,-0.5698577881136344,3.960767010226313e-09,6.360836032301858e-17,47.64147946090695,-122.14016499999998,132.5882110595703
1770645167.6412363,forward,50,0.0,0.0,0.0,2.811640501022339,1.5203945880060132e-09,-11.353439331054688,-0.5703228777644864,4.540489463740522e-09,1.5505394765484332e-16,47.641482076881246,-122.14016499999998,132.7484893798828
1770645167.703419,forward,50,0.0,0.0,0.0,3.24495530128479,1.8241977928212805e-09,-11.539495468139648,-0.5706381120164139,5.110528930186658e-09,-6.109162053586211e-17,47.641484949410355,-122.14016499999998,132.91497802734375
1770645167.7661245,forward,50,0.0,0.0,0.0,3.7053163051605225,2.1597488242264262e-09,-11.725883483886719,-0.5708394772431085,5.73617189229809e-09,2.6527530405611703e-17,47.641488070728556,-122.14016499999998,133.08628845214844
1770645167.838478,forward,50,0.0,0.0,0.0,4.169167518615723,2.5108812806706737e-09,-11.902962684631348,-0.57096474013049,6.425531738627612e-09,1.584113837836366e-16,47.641492605997136,-122.14016499999998,133.31983947753906
1770645167.905672,forward,50,0.0,0.0,0.0,4.751444339752197,2.9701852088948044e-09,-12.11130428314209,-0.5710573528847964,7.1655547769230165e-09,-1.266322948560005e-18,47.64149627762457,-122.14016499999998,133.49722290039062
1770645167.967271,forward,50,0.0,0.0,0.0,5.265028476715088,3.392564007498322e-09,-12.283187866210938,-0.5711068618588278,7.578666955011085e-09,6.890809984978326e-17,47.64150017259859,-122.14016499999998,133.67518615722656
1770645168.0299816,forward,50,0.0,0.0,0.0,5.800287246704102,3.850042062936154e-09,-12.451348304748535,-0.5711387697904212,7.830276521435691e-09,3.206087705354085e-16,47.64150428389005,-122.14016499999995,133.85260009765625
1770645168.093376,right,50,50,0.0,0.0,6.329678058624268,4.319851587553103e-09,-12.607367515563965,-0.5711590552807664,8.184973384757622e-09,4.028956935782242e-17,47.64150860485155,-122.14016499999995,134.02847290039062
1770645168.1552532,right,50,50,0.0,0.0,6.875628471374512,8.422184328082949e-05,-12.755498886108398,-0.5711722131074876,0.09228198969168884,-5.289467143845027e-07,47.641513129223775,-122.14016499999995,134.20184326171875
1770645168.2172105,right,50,50,0.0,0.0,7.464644432067871,0.003107784315943718,-12.899529457092285,-0.5711820392343899,0.24711677997861678,-2.1120027147533564e-06,47.64151785117416,-122.14016499999995,134.3718719482422
1770645168.2790518,right,50,50,0.0,0.0,8.072330474853516,0.014969626441597939,-13.035881996154785,-0.5711878735675965,0.35822681739059575,-3.7251103734202685e-06,47.64152276527324,-122.14016499999993,134.5377960205078
1770645168.3418746,right,50,50,0.0,0.0,8.638641357421875,0.03752560541033745,-13.15345287322998,-0.5711914368877646,0.4254246455132693,-5.3216122483293226e-06,47.64152786240765,-122.14016499998537,134.69818115234375
1770645168.4066992,right,50,50,0.0,0.0,9.28245735168457,0.07845033705234528,-13.276653289794922,-0.571193710084382,0.4754267301999499,-6.351716898261587e-06,47.64153309879028,-122.14016498371647,134.84567260742188
1770645168.4692483,right,50,50,0.0,0.0,10.072609901428223,0.15154889225959778,-13.41315746307373,-0.571195651052724,0.5131030099377839,-6.896087449276342e-06,47.641538499466854,-122.14016487996902,134.98477172851562
1770645168.5333064,right,50,50,0.0,0.0,10.689702033996582,0.2257559895515442,-13.508719444274902,-0.5711969838830265,0.5314637225217023,-7.435572626277618e-06,47.64154407200255,-122.1401646139544,135.1170196533203
1770645168.5944726,right,50,50,0.0,0.0,11.387722969055176,0.3268551230430603,-13.605291366577148,-0.5711968257368103,0.5450858447772529,-7.412659030471236e-06,47.6415498146562,-122.14016413605532,135.2423095703125
1770645168.657681,right,50,50,0.0,0.0,12.06749153137207,0.4417429566383362,-13.687697410583496,-0.571197427752837,0.5536916014262999,-7.4581507918787636e-06,47.6415557227746,-122.14016341617395,135.3600616455078
1770645168.7200813,right,50,50,0.0,0.0,12.796339988708496,0.5816839933395386,-13.763436317443848,-0.5711979855590843,0.5596928904389044,-7.408427069758253e-06,47.641561790542355,-122.14016243794838,135.46949768066406
1770645168.782382,right,50,50,0.0,0.0,13.504287719726562,0.7330363988876343,-13.824641227722168,-0.5711979980432872,0.5634847764836712,-7.978795472923613e-06,47.641568011723784,-122.14016119422664,135.5697784423828
1770645168.844464,right,50,50,0.0,0.0,14.26155948638916,0.9105488657951355,-13.876800537109375,-0.571198510949868,0.5661295749146714,-8.019442922426572e-06,47.64157438010037,-122.14015968372203,135.66006469726562
1770645168.9111264,right,50,50,0.0,0.0,15.106674194335938,1.1263352632522583,-13.919008255004883,-0.5711990052007093,0.5679984327185027,-7.993907766543815e-06,47.64158088959083,-122.14015790867965,135.73956298828125
1770645168.9689329,right,50,50,0.0,0.0,15.89210033416748,1.3424289226531982,-13.943366050720215,-0.5711989045188257,0.5690955626197186,-8.037325741920052e-06,47.641587534431224,-122.14015587332447,135.8075408935547
1770645169.032303,right,50,50,0.0,0.0,16.04315757751465,1.3856202363967896,-13.946430206298828,-0.5711989829638869,0.5692572250050854,-8.02855971057564e-06,47.64159430914927,-122.14015358285482,135.86329650878906
1770645169.0947614,right,50,50,0.0,0.0,17.422861099243164,1.8030211925506592,-13.950681686401367,-0.5711988522327018,0.5702536234817492,-8.020131026049883e-06,47.64160120863293,-122.14015104279133,135.90625
1770645169.1559868,right,50,50,0.0,0.0,18.20456886291504,2.0568275451660156,-13.934473991394043,-0.5711989865964562,0.5705652970448751,-7.991812737640914e-06,47.641608228181866,-122.14014825860956,135.93582153320312
1770645169.2167513,right,50,50,0.0,0.0,19.03658676147461,2.3398287296295166,-13.902814865112305,-0.5711989952250395,0.570782570277071,-8.000957073713265e-06,47.64161297237688,-122.14014626944854,135.9478759765625
1770645169.2788649,right,50,50,0.0,0.0,19.798982620239258,2.6102375984191895,-13.861041069030762,-0.5711988699613804,0.5709143561788029,-8.011376229320266e-06,47.641620182342336,-122.14014308975311,135.95416259765625
1770645169.3420806,right,50,50,0.0,0.0,20.774667739868164,2.9710357189178467,-13.790205001831055,-0.5711989735577196,0.5710228738647604,-7.998202376846648e-06,47.64162750135989,-122.14013967887173,135.94593811035156
1770645169.4046667,right,50,50,0.0,0.0,21.59822654724121,3.287891149520874,-13.71560287475586,-0.5711989593063567,0.5710812097916851,-7.992721121500364e-06,47.64163492575853,-122.14013604083543,135.92286682128906
1770645169.4653604,right,50,50,0.0,0.0,22.43105125427246,3.6192946434020996,-13.626726150512695,-0.5711988631889602,0.5711202264887246,-8.014979995349815e-06,47.64164245224456,-122.14013217922466,135.88470458984375
1770645169.5287204,right,50,50,0.0,0.0,23.27292251586914,3.9651002883911133,-13.523487091064453,-0.5711989811465037,0.5711463520945796,-8.051858568094323e-06,47.641650077713074,-122.1401280972645,135.8312225341797
1770645169.5908232,right,50,50,0.0,0.0,24.16636848449707,4.343551158905029,-13.399563789367676,-0.5711988772255925,0.5711646991539242,-8.002799813558293e-06,47.64165779923066,-122.14012379786121,135.76219177246094
1770645169.653358,right,50,50,0.0,0.0,25.069299697875977,4.737593650817871,-13.259693145751953,-0.5711989148704407,0.5711763050055134,-8.011803508959768e-06,47.64166561410407,-122.14011928362275,135.67750549316406
1770645169.715067,right,50,50,0.0,0.0,25.981483459472656,5.147097587585449,-13.103861808776855,-0.57119890753575,0.5711845873481226,-8.020318841516673e-06,47.64167351984594,-122.14011455692228,135.57704162597656
1770645169.7772079,right,50,50,0.0,0.0,26.858638763427734,5.551364421844482,-12.940596580505371,-0.5711989964397143,0.5711887702433658,-8.536895111498781e-06,47.64168151410612,-122.14010961990765,135.460693359375
1770645169.8383267,right,50,50,0.0,0.0,27.743812561035156,5.969450950622559,-12.762858390808105,-0.5711996881578973,0.5711911085754823,-8.495599565147517e-06,47.641689594688856,-122.14010447451737,135.32843017578125
1770645169.899438,right,50,50,0.0,0.0,28.681678771972656,6.42321252822876,-12.560688018798828,-0.571199712870641,0.5711931135564149,-8.52021338508638e-06,47.64169775946703,-122.14009912256297,135.18020629882812
1770645169.9621592,right,50,50,0.0,0.0,29.628000259399414,6.892005920410156,-12.342631340026855,-0.5711997131673121,0.5711953091684238,-8.501597671226684e-06,47.64170600646789,-122.1400935657069,135.01600646972656
1770645170.0250535,right,50,50,0.0,0.0,30.58260154724121,7.375735282897949,-12.108746528625488,-0.5711996422546133,0.5711971631194226,-8.53398121730605e-06,47.641714333753,-122.14008780547834,134.83584594726562
1770645170.0884037,idle,0.0,0.0,0.0,0.0,31.499277114868164,7.850229263305664,-11.87134838104248,-0.5711996422546133,0.5711971631194226,-8.53398121730605e-06,47.64172273946969,-122.14008184330487,134.63973999023438
1770645170.1519265,idle,0.0,0.0,0.0,0.0,32.51258850097656,8.383676528930664,-11.588604927062988,-0.5059109364694749,0.46491751658960245,0.04344033007480539,47.6417312218511,-122.14007568058875,134.427734375
1770645170.2118275,idle,0.0,0.0,0.0,0.0,33.42935562133789,8.868725776672363,-11.299396514892578,-0.3655315695023699,0.28761818272245077,0.10716435324952477,47.64173977937049,-122.14006931862433,134.1998748779297
1770645170.2749166,idle,0.0,0.0,0.0,0.0,34.29831314086914,9.331729888916016,-11.004666328430176,-0.22657737726238494,0.13501427494215154,0.14185298468602783,47.64174841029527,-122.14006275866153,133.95623779296875
1770645170.3379514,idle,0.0,0.0,0.0,0.0,35.258628845214844,9.846453666687012,-10.679126739501953,-0.06971513103520634,-0.02491280110827098,0.15551151606886668,47.64175710680305,-122.14005601288413,133.69580078125
1770645170.4016316,idle,0.0,0.0,0.0,0.0,36.21738052368164,10.358421325683594,-10.386364936828613,0.08725571600409397,-0.18292003971900017,0.14510485426763498,47.64176577950194,-122.14004923567897,133.40377807617188
1770645170.464602,idle,0.0,0.0,0.0,0.0,37.34354019165039,10.94446849822998,-10.094510078430176,0.2662523536102395,-0.30303654373071354,0.10600493948447737,47.64177442259365,-122.14004243643785,133.0839080810547
1770645170.5272546,idle,0.0,0.0,0.0,0.0,38.2188606262207,11.380764961242676,-9.914130210876465,0.3648548130874194,-0.33388322360180983,0.07764375668010426,47.64178305707464,-122.14003559592048,132.75433349609375
1770645170.588956,idle,0.0,0.0,0.0,0.0,39.102073669433594,11.801692008972168,-9.777644157409668,0.4343401982592697,-0.3402704741586721,0.05643522329968514,47.641791690010734,-122.14002875809139,132.45263671875
1770645170.6503093,backward,-50,0.0,0.0,0.0,39.94264221191406,12.184784889221191,-9.690994262695312,0.48057656458486814,-0.3352676031475751,0.04253336322082587,47.64180024760223,-122.14002209885703,132.19189453125
1770645170.7237842,backward,-50,0.0,0.0,0.0,40.628746032714844,12.48633861541748,-9.649118423461914,0.5082691424192177,-0.2412614669790874,0.03534158534080016,47.64180862204903,-122.14001581208282,131.98048400878906
1770645170.7897215,backward,-50,0.0,0.0,0.0,41.63383865356445,12.924087524414062,-9.631418228149414,0.5358165263012323,-0.1270893295855861,0.03293179560463951,47.64181669964999,-122.14001001484993,131.82366943359375
1770645170.8546953,backward,-50,0.0,0.0,0.0,42.3375244140625,13.23742389678955,-9.652483940124512,0.5481923576902301,-0.1148637925429624,0.03278329959346621,47.6418244097967,-122.1400047277829,131.71871948242188
1770645170.920956,backward,-50,0.0,0.0,0.0,42.967830657958984,13.525567054748535,-9.697999954223633,0.5559367194771021,-0.1101164763604828,0.03294504746338728,47.6418340821552,-122.13999840027402,131.64617919921875
1770645170.979546,backward,-50,0.0,0.0,0.0,43.6171760559082,13.831649780273438,-9.774272918701172,0.5614914210263757,-0.10767702833546251,0.03325527912490009,47.64183866212901,-122.13999545866811,131.6327362060547
1770645171.0419447,backward,-50,0.0,0.0,0.0,44.19510269165039,14.113730430603027,-9.870477676391602,0.564903182606294,-0.1055166502777822,0.033585423940454814,47.64184521330389,-122.13999119834389,131.63717651367188
1770645171.1035886,backward,-50,0.0,0.0,0.0,44.733177185058594,14.3864107131958,-9.98762035369873,0.56712223696639,-0.10366628676005626,0.03390308024434162,47.64185137616492,-122.13998709271908,131.67025756835938
1770645171.1666963,backward,-50,0.0,0.0,0.0,45.18649673461914,14.62533187866211,-10.110340118408203,0.5684520552248828,-0.1021237797695365,0.03416250215516591,47.64185715654474,-122.13998312981293,131.7296600341797
1770645171.2301588,backward,-50,0.0,0.0,0.0,45.63002395629883,14.869114875793457,-10.255556106567383,0.5693897690381812,-0.10060150066198344,0.03440067705455527,47.641862563398135,-122.13997930176936,131.81307983398438
1770645171.29513,backward,-50,0.0,0.0,0.0,46.03973388671875,15.10523509979248,-10.416244506835938,0.570010973143538,-0.09908349859173417,0.03460282227869545,47.64186760653765,-122.13997560207764,131.91847229003906
1770645171.3547351,backward,-50,0.0,0.0,0.0,46.487552642822266,15.378768920898438,-10.62844181060791,0.57048466199434,-0.09724116129993181,0.03480142248779494,47.64187229519255,-122.13997202528043,132.04409790039062
1770645171.4171312,backward,-50,0.0,0.0,0.0,46.84068298339844,15.609550476074219,-10.830824851989746,0.5707435167253461,-0.0956709369070514,0.03494082676123718,47.641876637631455,-122.13996856668183,132.18850708007812
1770645171.4801872,backward,-50,0.0,0.0,0.0,47.15799331665039,15.83250617980957,-11.04852294921875,0.5709096110706073,-0.09412201127547758,0.035053125914163444,47.641880641814154,-122.1399652221191,132.35043334960938
1770645171.5434024,backward,-50,0.0,0.0,0.0,47.41433334350586,16.027585983276367,-11.258642196655273,0.5710081353382918,-0.09274517908687463,0.03513524545011877,47.641884314225194,-122.13996198798785,132.52890014648438
1770645171.6072028,backward,-50,0.0,0.0,0.0,47.65273666381836,16.226221084594727,-11.493270874023438,0.5710767298297247,-0.09128202558491438,0.03520511948016048,47.641887659942356,-122.13995886134364,132.72317504882812
1770645171.6681352,backward,-50,0.0,0.0,0.0,47.896629333496094,16.4556884765625,-11.792695999145508,0.571128113743847,-0.08954672008289988,0.035270790412273524,47.64189068232802,-122.13995583990206,132.93287658691406
1770645171.7307572,idle,0.0,0.0,0.0,0.0,48.06513977050781,16.639677047729492,-12.056583404541016,0.5711546250315453,-0.08811286756820379,0.03531339280143421,47.64189338326919,-122.13995292177212,133.1578369140625
1770645171.7940874,idle,0.0,0.0,0.0,0.0,48.2075080871582,16.81816864013672,-12.325204849243164,0.5566639441356163,-0.16487491149989228,0.03757326884297227,47.6418957638295,-122.13995010546901,133.3980712890625
1770645171.8569357,idle,0.0,0.0,0.0,0.0,48.3333625793457,16.984682083129883,-12.562085151672363,0.5329940616261206,-0.22439988207407008,0.042809138285570994,47.64189782606752,-122.1399473889494,133.6533660888672
1770645171.9183657,idle,0.0,0.0,0.0,0.0,48.48161697387695,17.18950653076172,-12.833439826965332,0.4966033184959177,-0.27301368759732253,0.05310044119505357,47.64189957334562,-122.1399447701065,133.92333984375
1770645171.9808726,idle,0.0,0.0,0.0,0.0,48.59100341796875,17.346424102783203,-13.02664852142334,0.4654260721745603,-0.2953298804617292,0.06303725635002559,47.641901015785166,-122.13994224470133,134.20635986328125
1770645172.0442207,idle,0.0,0.0,0.0,0.0,48.71467590332031,17.52950668334961,-13.235471725463867,0.4267857889952939,-0.3073395561790763,0.07596644426731311,47.641902299270726,-122.13993977648502,134.47740173339844
1770645172.1067066,idle,0.0,0.0,0.0,0.0,48.81508255004883,17.68231773376465,-13.395136833190918,0.39352667171065886,-0.3084539475399712,0.08719887022386233,47.64190349873455,-122.13993736401002,134.7244110107422
1770645172.1691208,idle,0.0,0.0,0.0,0.0,48.90485763549805,17.821897506713867,-13.528261184692383,0.36291430944019004,-0.30384236664185876,0.09737777019203334,47.64190461863684,-122.139935022354,134.94789123535156
1770645172.2324145,idle,0.0,0.0,0.0,0.0,49.006874084472656,17.983644485473633,-13.66563606262207,0.32776377793102396,-0.2932228156666276,0.10867595152661633,47.641905664226954,-122.13993276128942,135.1483154296875
1770645172.2950857,idle,0.0,0.0,0.0,0.0,49.09020233154297,18.11802101135254,-13.764269828796387,0.29926576690126633,-0.28105640532398757,0.11741272608184644,47.64190664144037,-122.13993058619762,135.3260955810547
1770645172.3571594,idle,0.0,0.0,0.0,0.0,49.176692962646484,18.25935173034668,-13.850749015808105,0.2703861728904549,-0.26580356635495705,0.12579319047854245,47.64190755610968,-122.13992849938836,135.48159790039062
1770645172.4175956,idle,0.0,0.0,0.0,0.0,49.25105285644531,18.382221221923828,-13.909626007080078,0.24646722745285748,-0.25105861206104524,0.1323221036828738,47.64190841403311,-122.13992650081087,135.61524963378906
1770645172.4807637,yawRight,0.0,0.0,0.0,50,49.32122039794922,18.49928092956543,-13.952523231506348,0.224763146769827,-0.23605233739850573,0.1378887251689899,47.641909220494284,-122.13992458878987,135.72743225097656
1770645172.5551934,yawRight,0.0,0.0,0.0,50,49.38330078125,18.603918075561523,-13.984014511108398,0.2065831157151423,-0.2214101971724015,0.144653292770586,47.64190998036511,-122.13992276050776,135.81845092773438
1770645172.6062367,yawRight,0.0,0.0,0.0,50,49.45243453979492,18.721664428710938,-14.013808250427246,0.1892452055375456,-0.20186899773991604,0.16402258048251261,47.641910698414534,-122.13992101233465,135.88861083984375
1770645172.6702118,yawRight,0.0,0.0,0.0,50,49.50748825073242,18.81631088256836,-14.033927917480469,0.17723049388080966,-0.1841898371666861,0.18927480468643293,47.64191137683828,-122.13991934378839,135.93919372558594
1770645172.733715,yawRight,0.0,0.0,0.0,50,49.56780242919922,18.92085838317871,-14.052335739135742,0.1652841439290466,-0.16306719494969302,0.22744558121963163,47.64191200822516,-122.13991777405896,135.97671508789062
1770645172.7936141,yawRight,0.0,0.0,0.0,50,49.61142349243164,18.997032165527344,-14.063237190246582,0.15707311596235232,-0.14685004604456411,0.2623719641745015,47.641912589830135,-122.1399163124876,136.00587463378906
1770645172.8556764,yawRight,0.0,0.0,0.0,50,49.65371322631836,19.07131004333496,-14.071809768676758,0.14917956917851935,-0.13052534960297063,0.3026015805410207,47.64191312388315,-122.13991495767833,136.02870178222656
1770645172.9191267,yawRight,0.0,0.0,0.0,50,49.692562103271484,19.13990592956543,-14.077900886535645,0.14177536274931352,-0.11512484552160944,0.34561191607484515,47.64191361350627,-122.13991370518907,136.04640197753906
1770645172.9812472,yawRight,0.0,0.0,0.0,50,49.72650146484375,19.200153350830078,-14.081785202026367,0.13502551270294055,-0.1014372311197798,0.38847971198079695,47.641913916900464,-122.13991292424572,136.05580139160156
1770645173.0441067,yawRight,0.0,0.0,0.0,50,49.762508392333984,19.264331817626953,-14.08438491821289,0.12742792763131305,-0.08679246964177957,0.4400011072894058,47.641914339724295,-122.13991182969131,136.06686401367188
1770645173.105665,yawRight,0.0,0.0,0.0,50,49.79383850097656,19.32041358947754,-14.085331916809082,0.12032448981782021,-0.0740337892164836,0.49062478211443766,47.64191472662675,-122.13991082212549,136.0748291015625
1770645173.167849,yawRight,0.0,0.0,0.0,50,49.82373809814453,19.374156951904297,-14.085049629211426,0.11300812634559791,-0.06192863738543973,0.5447963073676075,47.64191508038684,-122.13990989565931,136.08026123046875
1770645173.2304988,yawRight,0.0,0.0,0.0,50,49.84973907470703,19.42104721069336,-14.083829879760742,0.10614206357846416,-0.05153965902752341,0.5973214187967415,47.641915403714926,-122.13990904478463,136.08363342285156
1770645173.2920895,yawRight,0.0,0.0,0.0,50,49.87238693237305,19.462026596069336,-14.081995964050293,0.099722138899322,-0.04265639429603382,0.6479026882309509,47.641915699115586,-122.13990826381558,136.08531188964844
1770645173.355058,yawRight,0.0,0.0,0.0,50,49.89214324951172,19.497880935668945,-14.07978630065918,0.09374857649068614,-0.03508290012227303,0.6963403589946267,47.641915968990396,-122.13990754775169,136.08566284179688
1770645173.4170125,yawRight,0.0,0.0,0.0,50,49.91486358642578,19.53923225402832,-14.076509475708008,0.08640574310450429,-0.026643332318083975,0.7579272810970765,47.64191621529496,-122.13990689159242,136.08494567871094
1770645173.4806516,yawRight,0.0,0.0,0.0,50,49.932884216308594,19.57210922241211,-14.07332992553711,0.0801929137778916,-0.020215515053598036,0.8120900255206441,47.64191644015644,-122.1399062906165,136.08338928222656
1770645173.5413976,yawRight,0.0,0.0,0.0,50,49.94856643676758,19.600799560546875,-14.070116996765137,0.07448136682874545,-0.014856710957897548,0.8638510168948875,47.6419166453589,-122.13990574043257,136.08119201660156
1770645173.6036863,yawRight,0.0,0.0,0.0,50,49.96293258666992,19.62714195251465,-14.066792488098145,0.06898688682622259,-0.01018126105437143,0.9157421067110021,47.64191683254912,-122.13990523703012,136.07852172851562
1770645173.6785192,yawRight,0.0,0.0,0.0,50,49.975467681884766,19.65015411376953,-14.063583374023438,0.06398104997161004,-0.006318613965286418,0.9651288605209786,47.64191705689613,-122.13990463196735,136.0744171142578
1770645173.745955,yawRight,0.0,0.0,0.0,50,49.992679595947266,19.68184471130371,-14.058669090270996,0.05676114572391609,-0.0014018886295298185,1.040638009728059,47.64191720792469,-122.13990422329549,136.0710906982422
1770645173.80845,yawRight,0.0,0.0,0.0,50,50.001277923583984,19.69770622253418,-14.055984497070312,0.05300270495691451,0.0008562288046307776,1.0823481487086584,47.64191734570997,-122.13990384962726,136.06761169433594
1770645173.8703396,yawRight,0.0,0.0,0.0,50,50.0140266418457,19.721269607543945,-14.051701545715332,0.04724120915077236,0.0039168796941867765,1.1501840389516982,47.64191747138417,-122.13990350822122,136.06407165527344
1770645173.9333613,yawRight,0.0,0.0,0.0,50,50.0224494934082,19.73688316345215,-14.048653602600098,0.04330277094612991,0.005727294880951323,1.1997886211076487,47.641917585942245,-122.13990319625988,136.0605010986328
1770645173.9972324,yawRight,0.0,0.0,0.0,50,50.03059387207031,19.751989364624023,-14.045534133911133,0.039403795424160254,0.007289845343698092,1.2520271194262365,47.641917690413464,-122.13990291128101,136.05697631835938
1770645174.0592258,yawRight,0.0,0.0,0.0,50,50.03805923461914,19.76584243774414,-14.042519569396973,0.035753962598440464,0.008539757425404757,1.3042844407916587,47.641917785655544,-122.13990265092396,136.05348205566406
1770645174.1210022,yawRight,0.0,0.0,0.0,50,50.04618453979492,19.78095817565918,-14.039045333862305,0.031695725611487494,0.00967860667665889,1.3670155559926789,47.64191787245762,-122.13990241308194,136.05007934570312
1770645174.1839838,yawRight,0.0,0.0,0.0,50,50.052337646484375,19.792407989501953,-14.036274909973145,0.02857351281774106,0.010366153558322306,1.4193062347976744,47.64191795160876,-122.13990219597815,136.04678344726562
1770645174.2460825,idle,0.0,0.0,0.0,0.0,50.05769729614258,19.80240249633789,-14.033753395080566,0.025818821564934286,0.010828794701776289,1.468990485160765,47.641918023795164,-122.13990199770876,136.0435791015625
1770645174.3081589,idle,0.0,0.0,0.0,0.0,50.06311798095703,19.812530517578125,-14.031085968017578,0.023034571725144684,0.011090594563138115,1.5212666201140643,47.64191808963439,-122.13990181670006,136.04049682617188
1770645174.3701005,idle,0.0,0.0,0.0,0.0,50.068504333496094,19.822620391845703,-14.028313636779785,0.02039289316059405,0.010940887617155988,1.5660199395168146,47.641918149641064,-122.13990165140366,136.0375518798828
1770645174.431383,idle,0.0,0.0,0.0,0.0,50.07276916503906,19.830608367919922,-14.026023864746094,0.018402932403984044,0.010569738617061149,1.595973938735815,47.641918204398465,-122.13990150049959,136.03472900390625
1770645174.493499,idle,0.0,0.0,0.0,0.0,50.07666778564453,19.83793067932129,-14.023843765258789,0.01665353523884804,0.010068656582670891,1.6194753045480963,47.64191823812435,-122.13990140729192,136.0329132080078
1770645174.5584006,idle,0.0,0.0,0.0,0.0,50.08075714111328,19.845603942871094,-14.02147102355957,0.014890907479390878,0.009407658178962516,1.6403110669463121,47.64191829964067,-122.13990123694417,136.0294647216797
1770645174.6184695,idle,0.0,0.0,0.0,0.0,50.083988189697266,19.85167694091797,-14.019518852233887,0.013540506117009824,0.008802489859291189,1.654260108356008,47.64191832767124,-122.1399011592711,136.02781677246094
1770645174.6811402,idle,0.0,0.0,0.0,0.0,50.0866584777832,19.856708526611328,-14.017845153808594,0.012447833718182836,0.008255445379692484,1.664223207076172,47.64191836661214,-122.13990105118876,136.02545166015625
1770645174.7434459,idle,0.0,0.0,0.0,0.0,50.089778900146484,19.862590789794922,-14.01581859588623,0.01119685161323106,0.0075720401265796326,1.6741626741667843,47.641918402087825,-122.1399009525744,136.02322387695312
1770645174.8075159,idle,0.0,0.0,0.0,0.0,50.09212875366211,19.86702537536621,-14.014236450195312,0.010270118147896499,0.007030502075691312,1.680520248380818,47.64191843450999,-122.1399008625396,136.02108764648438
1770645174.8701456,idle,0.0,0.0,0.0,0.0,50.09461212158203,19.87172508239746,-14.01250171661377,0.00930106594536591,0.00643633442426927,1.6862641036694814,47.64191846401589,-122.13990078039906,136.0190887451172
1770645174.9322772,idle,0.0,0.0,0.0,0.0,50.096580505371094,19.87543296813965,-14.01108455657959,0.008543610332764035,0.005954405198052805,1.69012873776089,47.64191849091429,-122.1399007054166,136.01718139648438
1770645174.99345,idle,0.0,0.0,0.0,0.0,50.09874725341797,19.87952995300293,-14.009462356567383,0.0077133178498829365,0.0054110721207366284,1.693758896863471,47.64191851544537,-122.13990063700844,136.015380859375
1770645175.0552516,idle,0.0,0.0,0.0,0.0,50.10062789916992,19.88308334350586,-14.008001327514648,0.006998062212933436,0.004932165931840744,1.696400841437874,47.641918537780654,-122.13990057451458,136.013671875
1770645175.1179113,idle,0.0,0.0,0.0,0.0,50.10203552246094,19.885746002197266,-14.00687026977539,0.006464242139623647,0.004569125598246353,1.6980950695557135,47.64191855816032,-122.13990051752894,136.01206970214844
1770645175.1813762,idle,0.0,0.0,0.0,0.0,50.103607177734375,19.88872718811035,-14.005558967590332,0.005867957285648405,0.0041590084801624945,1.6997212253864726,47.64191857679022,-122.1399004655184,136.0105438232422
1770645175.243643,idle,0.0,0.0,0.0,0.0,50.10498046875,19.891319274902344,-14.004374504089355,0.005351185291215218,0.0038000991723890747,1.7009166462727041,47.64191859377329,-122.13990041805152,136.0091094970703
1770645175.306333,idle,0.0,0.0,0.0,0.0,50.10628128051758,19.89379119873047,-14.003205299377441,0.004859208237771758,0.0034559440889058955,1.7018802176559624,47.641918609246744,-122.13990037477288,136.00775146484375
1770645175.3707747,idle,0.0,0.0,0.0,0.0,50.10731887817383,19.89574432373047,-14.002246856689453,0.00447130093939791,0.0031831214064469834,1.702528827205727,47.641918623313536,-122.13990033530173,136.0064697265625
1770645175.4335086,idle,0.0,0.0,0.0,0.0,50.10840606689453,19.897809982299805,-14.001195907592773,0.004060863598856519,0.0028933773199736985,1.7031149629690092,47.64191863614519,-122.13990029925735,136.0052490234375
1770645175.4959135,idle,0.0,0.0,0.0,0.0,50.10935592651367,19.89960479736328,-14.000246047973633,0.003704547283657726,0.00264097680704,1.7035456572452212,47.64191864794757,-122.13990026638585,136.0041046142578
1770645175.559257,idle,0.0,0.0,0.0,0.0,50.11025619506836,19.901317596435547,-13.999303817749023,0.0033648005407627287,0.002399794229840476,1.7038934893889235,47.64191865861776,-122.13990023638272,136.0030059814453
1770645175.6206884,idle,0.0,0.0,0.0,0.0,50.11104965209961,19.90280532836914,-13.998454093933105,0.0030696388419080775,0.002189915766197149,1.7041492400934677,47.64191866836159,-122.13990020901943,136.00198364257812
1770645175.6852043,idle,0.0,0.0,0.0,0.0,50.11177062988281,19.90416145324707,-13.99764633178711,0.0028005839214414693,0.0019982269608076267,1.704347847644257,47.641918677282,-122.13990018406757,136.00100708007812
1770645175.746477,idle,0.0,0.0,0.0,0.0,50.1124153137207,19.905399322509766,-13.996879577636719,0.0025548934696465104,0.001823197608973641,1.7045005797246346,47.6419186854133,-122.13990016129867,136.00009155273438
1770645175.809766,idle,0.0,0.0,0.0,0.0,50.11292266845703,19.9063720703125,-13.996252059936523,0.002361654744256681,0.0016853486914849526,1.7046038049428667,47.64191869282411,-122.13990014053508,135.99920654296875
1770645175.8722746,idle,0.0,0.0,0.0,0.0,50.113563537597656,19.90755844116211,-13.995457649230957,0.0021264550034174176,0.0015175500367557045,1.704711431053326,47.64191869958305,-122.13990012159907,135.99838256835938
1770645175.9350882,idle,0.0,0.0,0.0,0.0,50.11397171020508,19.908369064331055,-13.994887351989746,0.0019656416115827555,0.0014027159128548487,1.7047737619526702,47.64191870575873,-122.13990010431299,135.99758911132812
1770645175.9957085,idle,0.0,0.0,0.0,0.0,50.11444854736328,19.909236907958984,-13.994256019592285,0.0017932651225793788,0.0012796421968618585,1.704831377901308,47.641918711454075,-122.1399000885499,135.99684143066406
1770645176.0587792,down,0.0,0.0,50,0.0,50.1148681640625,19.910064697265625,-13.993621826171875,0.0016287561393655472,0.0011622426281873305,1.704877324604633,47.64191871649756,-122.13990007415752,135.9961395263672
1770645176.120716,down,0.0,0.0,50,0.0,50.11524963378906,19.910757064819336,-13.988555908203125,0.0044846534017684275,0.0034322180153750297,1.7049168339105671,47.64191872116363,-122.13990006100892,135.99545288085938
1770645176.1845167,down,0.0,0.0,50,0.0,50.11556625366211,19.911378860473633,-13.965255737304688,0.018089530623387015,0.014447976835153158,1.7050599235949804,47.641918725486605,-122.13990004905334,135.99481201171875
1770645176.256001,down,0.0,0.0,50,0.0,50.11562728881836,19.911571502685547,-13.922818183898926,0.0709071253550282,0.05935472579300249,1.706942119995291,47.64191872929494,-122.13990003813849,135.99420166015625
1770645176.3218899,down,0.0,0.0,50,0.0,50.1141357421875,19.909372329711914,-13.847427368164062,0.2464097762946976,0.2351807381696697,1.7312607042396806,47.6419187328975,-122.13990002818817,135.99269104003906
1770645176.3868613,down,0.0,0.0,50,0.0,50.1093635559082,19.902523040771484,-13.767020225524902,0.3510629977491821,0.35404812138480496,1.76164274493863,47.6419187370164,-122.13990001661229,135.9671173095703
1770645176.4489844,down,0.0,0.0,50,0.0,50.09756851196289,19.885976791381836,-13.651116371154785,0.42848550590852386,0.4444024490058754,1.7932748031240195,47.64191873801316,-122.13990001341293,135.94154357910156
1770645176.512706,down,0.0,0.0,50,0.0,50.08069610595703,19.86253547668457,-13.528966903686523,0.4724146868779248,0.4944930664925715,1.8150189338657703,47.64191872957855,-122.13990003153347,135.86500549316406
1770645176.573619,down,0.0,0.0,50,0.0,50.05292892456055,19.823991775512695,-13.363064765930176,0.5060822099864648,0.5301198935062084,1.8335054311688117,47.641918693216596,-122.13990010927935,135.78489685058594
1770645176.6352894,down,0.0,0.0,50,0.0,50.0229377746582,19.78223419189453,-13.205074310302734,0.5249314035458412,0.5478406272308247,1.8444421848747865,47.641918643610275,-122.13990021299307,135.72010803222656
1770645176.69796,down,0.0,0.0,50,0.0,49.982200622558594,19.725210189819336,-13.008143424987793,0.539466036685825,0.5596084155347851,1.853060837936356,47.64191852161534,-122.13990046481653,135.60501098632812
1770645176.7603672,down,0.0,0.0,50,0.0,49.935916900634766,19.660005569458008,-12.798699378967285,0.5490578810965536,0.5659903503760001,1.8587630704962923,47.64191833563556,-122.13990084670345,135.4676513671875
1770645176.8234746,down,0.0,0.0,50,0.0,49.87940216064453,19.57987403869629,-12.555770874023438,0.5560558157268125,0.5696265225119107,1.8628725327424127,47.64191808117646,-122.13990136974625,135.30738830566406
1770645176.8856978,down,0.0,0.0,50,0.0,49.81477737426758,19.487606048583984,-12.289313316345215,0.5608722609952999,0.5714193024623301,1.865631398852943,47.64191775590506,-122.13990204130614,135.12387084960938
1770645176.9484773,down,0.0,0.0,50,0.0,49.74200439453125,19.3830623626709,-11.999425888061523,0.5641839967554668,0.5721803161728918,1.8674614437478396,47.64191735858625,-122.13990286663744,134.91685485839844
1770645177.0111418,down,0.0,0.0,50,0.0,49.66108322143555,19.26612091064453,-11.68624210357666,0.566455336173672,0.5723931044150782,1.8686591563665453,47.64191688853383,-122.13990384937001,134.686279296875
1770645177.0727267,down,0.0,0.0,50,0.0,49.57198715209961,19.13668441772461,-11.349920272827148,0.5680098214366595,0.5723387482758941,1.8694306590603118,47.64191634557623,-122.13990499239755,134.43212890625
1770645177.1371722,down,0.0,0.0,50,0.0,49.47950744628906,19.0017147064209,-11.008271217346191,0.5690271345497172,0.5721816102518001,1.8698998382920937,47.64191572943899,-122.13990629787767,134.1544952392578
1770645177.1996746,down,0.0,0.0,50,0.0,49.3743896484375,18.8476505279541,-10.627310752868652,0.5697600308261732,0.5719860877427952,1.87020707279094,47.64191504008775,-122.13990776756184,133.85350036621094
1770645177.2623785,down,0.0,0.0,50,0.0,49.25542449951172,18.672607421875,-10.204010009765625,0.5702744276146876,0.5717925143827957,1.8703968561278,47.64191427731663,-122.13990940284616,133.52928161621094
1770645177.3237514,down,0.0,0.0,50,0.0,49.1393928527832,18.501312255859375,-9.797901153564453,0.5705880193963908,0.5716416641663007,1.8704929721034762,47.64191344088543,-122.13991120499989,133.1820068359375
1770645177.386087,down,0.0,0.0,50,0.0,49.015838623046875,18.318382263183594,-9.371715545654297,0.5708012321288487,0.5715189368771291,1.8705430867644237,47.64191253069117,-122.13991317506373,132.81185913085938
1770645177.4477444,down,0.0,0.0,50,0.0,48.8712043762207,18.10367774963379,-8.8799467086792,0.5709567971076837,0.5714150033290649,1.870565572209503,47.64191154649368,-122.13991531392615,132.41905212402344
1770645177.5107155,down,0.0,0.0,50,0.0,48.738929748535156,17.90685272216797,-8.43607234954834,0.5710454059381924,0.5713487679092867,1.8705690474630454,47.641910488018404,-122.13991762242487,132.0037841796875
1770645177.571857,idle,0.0,0.0,0.0,0.0,48.569602966308594,17.654417037963867,-7.875238418579102,0.5711149633937921,0.5712895990341024,1.8705610495741336,47.64190935505944,-122.13992010129601,131.5662841796875
1770645177.6353204,idle,0.0,0.0,0.0,0.0,48.42891311645508,17.444169998168945,-7.420892715454102,0.5166707830196786,0.48031048822984157,1.8335080712668665,47.64190814730796,-122.13992275117423,131.10675048828125
1770645177.6960828,idle,0.0,0.0,0.0,0.0,48.23933029174805,17.158296585083008,-6.8727312088012695,0.3609965797535568,0.28201615171928107,1.7620749835873872,47.641906864592364,-122.139925572618,130.62542724609375
1770645177.7583516,idle,0.0,0.0,0.0,0.0,48.04258728027344,16.85651206970215,-6.378769397735596,0.20714195830889198,0.11397079648607593,1.7259717440080673,47.641905506500876,-122.1399285660843,130.12252807617188
1770645177.819925,idle,0.0,0.0,0.0,0.0,47.83927536010742,16.537120819091797,-5.925947666168213,0.05013309893708414,-0.045248705869720955,1.7154625918794904,47.64190407094056,-122.13993173685289,129.59873962402344
1770645177.8833582,idle,0.0,0.0,0.0,0.0,47.63997268676758,16.213973999023438,-5.519507884979248,-0.10681937407123844,-0.15952355224313483,1.7271028374094193,47.64190250397638,-122.1399352177555,129.0696563720703
1770645177.946685,idle,0.0,0.0,0.0,0.0,47.4695930480957,15.930299758911133,-5.190853595733643,-0.20561301733050205,-0.20479314958515768,1.7402047223791899,47.64190077932569,-122.13993910423451,128.5629425048828
1770645178.0095098,down,0.0,0.0,50,0.0,47.29487609863281,15.635451316833496,-4.869002342224121,-0.25020393237688193,-0.22245469174199933,1.7451662593325588,47.64189896248362,-122.13994328541584,128.09332275390625
1770645178.0704863,down,0.0,0.0,50,0.0,47.13369369506836,15.361607551574707,-4.580493450164795,-0.3259405742077491,-0.31237448322406985,1.7622637446128597,47.641897145432445,-122.13994759011426,127.66930389404297
1770645178.1336734,down,0.0,0.0,50,0.0,46.96921920776367,15.079839706420898,-4.2672295570373535,-0.41332834593909823,-0.4160460431261895,1.7926037328906643,47.64189541332743,-122.13995182419777,127.2911148071289
1770645178.195549,down,0.0,0.0,50,0.0,46.85080337524414,14.874185562133789,-4.018239498138428,-0.45821927827389103,-0.4697333857123284,1.8122252063281827,47.64189380401164,-122.13995583006101,126.9569320678711
1770645178.2556708,down,0.0,0.0,50,0.0,46.72547912597656,14.652571678161621,-3.72153639793396,-0.49458844716342926,-0.5114344212856953,1.8301951925194404,47.641892804943126,-122.13995833611514,126.75745391845703
1770645178.31932,down,0.0,0.0,50,0.0,46.61453628540039,14.45158576965332,-3.4162657260894775,-0.5190712236392192,-0.5372751987612232,1.8431736527278113,47.64189139091124,-122.13996189896447,126.47225952148438
1770645178.3821104,down,0.0,0.0,50,0.0,46.51383590698242,14.263545036315918,-3.085488796234131,-0.5363493906640588,-0.5533577613207794,1.85260416084535,47.64189007507209,-122.13996524781943,126.18496704101562
1770645178.445935,down,0.0,0.0,50,0.0,46.43235397338867,14.105557441711426,-2.757939338684082,-0.5475043075362982,-0.5621643304612703,1.858691425893257,47.64188887609007,-122.13996834884394,125.89228820800781
1770645178.5113256,down,0.0,0.0,50,0.0,46.36777877807617,13.974471092224121,-2.4343316555023193,-0.5548344232495419,-0.566919676519253,1.8626095024663105,47.641887475583346,-122.1399720642565,125.49009704589844
1770645178.572084,down,0.0,0.0,50,0.0,46.315643310546875,13.862071990966797,-2.0986552238464355,-0.5599402121213137,-0.5695348700826699,1.8652402989215875,47.64188686214964,-122.13997373677203,125.28266906738281
1770645178.6356072,down,0.0,0.0,50,0.0,46.269100189208984,13.751508712768555,-1.679146409034729,-0.5640586672529755,-0.5710534433555122,1.8672430077820015,47.64188604997052,-122.13997601215155,124.96240234375
1770645178.6974952,down,0.0,0.0,50,0.0,46.243377685546875,13.679329872131348,-1.3151236772537231,-0.5663466278155411,-0.5715769644986457,1.8682701797534045,47.6418853654565,-122.13997800869461,124.63018035888672
1770645178.7604704,down,0.0,0.0,50,0.0,46.22928237915039,13.625018119812012,-0.9375946521759033,-0.5679274679999042,-0.5717511322476155,1.8689144681939958,47.641884805862944,-122.13997972904113,124.28507995605469
1770645178.8232558,idle,0.0,0.0,0.0,0.0,46.227176666259766,13.584321975708008,-0.4863491654396057,-0.5691450930724684,-0.5717415397379415,1.869345943335574,47.641884368410835,-122.13998117684623,123.9263916015625
1770645178.8846931,idle,0.0,0.0,0.0,0.0,46.227943420410156,13.581856727600098,-0.4422677457332611,-0.5395183905510192,-0.5348921560797133,1.8563992211221638,47.64188405018401,-122.13998235600624,123.55352783203125
1770645178.9482813,idle,0.0,0.0,0.0,0.0,46.228397369384766,13.581562995910645,-0.4308207333087921,0.0040227172519662745,0.005065600248635577,1.8482732500906642,47.64188384864361,-122.13998327056976,123.16602325439453
1770645179.0092666,idle,0.0,0.0,0.0,0.0,46.22832489013672,13.581487655639648,-0.41989263892173767,0.0019125934608634231,0.0023747497615591658,1.8478722207151406,47.6418837616282,-122.13998392444581,122.76348876953125
1770645179.0740092,idle,0.0,0.0,0.0,0.0,46.22822570800781,13.581330299377441,-0.40449872612953186,0.0010260341351598335,0.001141201557740051,1.8475671691162405,47.64188378052295,-122.13998428561467,122.39479064941406
1770645179.1363053,idle,0.0,0.0,0.0,0.0,46.22806930541992,13.58113956451416,-0.3902261257171631,0.0005617140085273728,0.0006224324044155335,1.8473529448268131,47.641883777123866,-122.1399842541531,122.43183135986328
1770645179.198731,idle,0.0,0.0,0.0,0.0,46.22792053222656,13.580921173095703,-0.3765368163585663,0.00026130676017819106,0.00028047892192483467,1.84718544807964,47.641883776884,-122.13998425449564,122.42723846435547
1770645179.2618706,idle,0.0,0.0,0.0,0.0,46.22774124145508,13.580658912658691,-0.3617474138736725,3.600120093773502e-05,1.947744625831642e-05,1.8470365160547677,47.64188377616438,-122.13998425594214,122.41404724121094
1770645179.324051,idle,0.0,0.0,0.0,0.0,46.22761535644531,13.580463409423828,-0.3514830768108368,-7.510183580410964e-05,-0.00010120011060948573,1.846950378933306,47.64188377503315,-122.1399842582516,122.39901733398438
1770645179.386416,idle,0.0,0.0,0.0,0.0,46.227439880371094,13.580201148986816,-0.3384590148925781,-0.00017368790346375783,-0.00021252025342111223,1.8468588711728324,47.64188377359313,-122.13998426108142,122.38424682617188
1770645179.4485104,idle,0.0,0.0,0.0,0.0,46.22727966308594,13.57996654510498,-0.3273838460445404,-0.00022625920660083513,-0.0002716425216044596,1.8467950044091208,47.64188377215305,-122.13998426424125,122.37024688720703
1770645179.5112267,idle,0.0,0.0,0.0,0.0,46.22712707519531,13.579757690429688,-0.31751304864883423,-0.0002540349671297842,-0.0003025351209452963,1.8467477826252818,47.64188377071292,-122.13998426743917,122.35711669921875
1770645179.5745168,idle,0.0,0.0,0.0,0.0,46.22695541381836,13.579540252685547,-0.3073675036430359,-0.0002679824587007629,-0.00031744885572017816,1.84670708640902,47.64188376927274,-122.13998427063714,122.34484100341797
1770645179.6366034,idle,0.0,0.0,0.0,0.0,46.2267951965332,13.579345703125,-0.2983328402042389,-0.00026953217782003697,-0.00031904665972765756,1.8466774502703944,47.641883767832496,-122.13998427383513,122.33336639404297
1770645179.6990457,idle,0.0,0.0,0.0,0.0,46.22666931152344,13.57917308807373,-0.2902791500091553,-0.000264167774690558,-0.00031265515780300857,1.8466554774389272,47.64188376639221,-122.13998427681736,122.32263946533203
1770645179.7609715,idle,0.0,0.0,0.0,0.0,46.226585388183594,13.578998565673828,-0.2819993197917938,-0.00025403495719197633,-0.0003004045416316866,1.8466363333002276,47.64188376495189,-122.13998427969808,122.3126220703125
1770645179.8240285,idle,0.0,0.0,0.0,0.0,46.22650146484375,13.578842163085938,-0.2746240794658661,-0.00024127959157420488,-0.00028495819937208745,1.8466226952672398,47.641883763511515,-122.13998428236307,122.30326080322266
1770645179.885756,idle,0.0,0.0,0.0,0.0,46.2264289855957,13.578709602355957,-0.26804766058921814,-0.00022733209736403687,-0.00026897926025975773,1.8466124046328651,47.64188376207109,-122.13998428483771,122.29450988769531
1770645179.947855,idle,0.0,0.0,0.0,0.0,46.22634506225586,13.578577995300293,-0.2615814805030823,-0.00021302697610937408,-0.00025140240199768673,1.8466035167243433,47.64188376121388,-122.13998428718544,122.28633880615234
1770645180.0136786,idle,0.0,0.0,0.0,0.0,46.22627258300781,13.578469276428223,-0.25609204173088074,-0.00019919869151219732,-0.00023542344487894237,1.8465975726466928,47.6418837604939,-122.13998428931743,122.27869415283203
1770645180.0746007,idle,0.0,0.0,0.0,0.0,46.22618865966797,13.578351974487305,-0.2501365840435028,-0.00018382070265441386,-0.00021731392502569784,1.8465918434718966,47.641883759773876,-122.13998429127173,122.27155303955078
1770645180.1377594,idle,0.0,0.0,0.0,0.0,46.22610855102539,13.5782470703125,-0.24458415806293488,-0.00017046925890094563,-0.00020186757888156676,1.846588275524025,47.64188375905382,-122.13998429313725,122.26487731933594
1770645180.20148,idle,0.0,0.0,0.0,0.0,46.22602844238281,13.578155517578125,-0.23986294865608215,-0.00015771386112328702,-0.00018642126265376523,1.846584897374884,47.641883758333734,-122.1399842947489,122.25863647460938
1770645180.2655056,idle,0.0,0.0,0.0,0.0,46.2259521484375,13.57807445526123,-0.23521800339221954,-0.00014495847007081188,-0.00017150757006225402,1.846581356309874,47.64188375761362,-122.13998429634788,122.25279235839844
1770645180.327457,idle,0.0,0.0,0.0,0.0,46.225868225097656,13.577991485595703,-0.2306719720363617,-0.00013160705148827429,-0.0001555285887071403,1.8465785725297998,47.641883756893485,-122.13998429768034,122.24732971191406
1770645180.3902073,idle,0.0,0.0,0.0,0.0,46.22578430175781,13.577919960021973,-0.22661736607551575,-0.00012040136994786604,-0.0001427454076259675,1.8465785692923344,47.641883756173314,-122.13998429901285,122.24222564697266
1770645180.4529517,idle,0.0,0.0,0.0,0.0,46.22571563720703,13.577868461608887,-0.22334899008274078,-0.00011181830409786391,-0.00013262541781705695,1.8465785669641162,47.64188375545314,-122.13998430014227,122.23744201660156
1770645180.5148058,idle,0.0,0.0,0.0,0.0,46.225677490234375,13.577802658081055,-0.21943238377571106,-0.00010287760708088312,-0.00012197277638885397,1.8465785647091113,47.64188375473293,-122.13998430120824,122.23297119140625
1770645180.5767772,idle,0.0,0.0,0.0,0.0,46.225677490234375,13.577742576599121,-0.21609404683113098,-9.381770809657392e-05,-0.00011078747846052533,1.8465785625769378,47.64188375401272,-122.13998430227424,122.22879028320312
1770645180.6399908,idle,0.0,0.0,0.0,0.0,46.225677490234375,13.577699661254883,-0.21325595676898956,-8.571147777928054e-05,-0.00010120011838717649,1.846578560878051,47.641883753292475,-122.13998430308638,122.22486877441406
1770645180.70097,idle,0.0,0.0,0.0,0.0,46.225677490234375,13.577659606933594,-0.21030759811401367,-7.832049352963969e-05,-9.2677991873007e-05,1.8465785594812467,47.64188375267515,-122.13998430388587,122.22120666503906
1770645180.7628546,idle,0.0,0.0,0.0,0.0,46.225677490234375,13.577616691589355,-0.2074170708656311,-7.128715166824255e-05,-8.415586824620311e-05,1.8465785582359362,47.641883752675376,-122.13998430468533,122.2177734375
1770645180.8280568,forward,50,0.0,0.0,0.0,46.225677490234375,13.577577590942383,-0.2048342525959015,-6.66379922114558e-05,-7.882955668807941e-05,1.8465785574997635,47.64188375267559,-122.13998430542136,122.21455383300781
1770645180.8878472,forward,50,0.0,0.0,0.0,46.225608825683594,13.577759742736816,-0.20319083333015442,-0.10418653883124084,-7.082887004365616e-05,1.8465862290892683,47.64188375267579,-122.13998430595431,122.21154022216797
1770645180.949763,forward,50,0.0,0.0,0.0,46.22397994995117,13.583399772644043,-0.2174329161643982,-0.25718890063714983,-5.434475787953751e-05,1.8465965446823647,47.641883752675966,-122.1399843064873,122.2087173461914
1770645181.0123627,forward,50,0.0,0.0,0.0,46.21825408935547,13.603560447692871,-0.2529551684856415,-0.3661270119105401,-3.1970566960553626e-05,1.8466014990386956,47.64188375267614,-122.13998430702027,122.20606994628906
1770645181.0740345,forward,50,0.0,0.0,0.0,46.20719528198242,13.642566680908203,-0.3056785464286804,-0.43459745476642875,-1.8083008227400582e-05,1.84660334100306,47.641883752642016,-122.13998430740094,122.20331573486328
1770645181.1374092,forward,50,0.0,0.0,0.0,46.18855285644531,13.708389282226562,-0.3792850077152252,-0.48201981794472226,-1.3363693009958729e-05,1.846605122084956,47.641883745402225,-122.13998427089996,122.21043395996094
1770645181.19966,forward,50,0.0,0.0,0.0,46.1634407043457,13.797054290771484,-0.46529215574264526,-0.511766746643501,-1.0630728310520103e-05,1.8466056751345372,47.64188372539864,-122.1399841671842,122.22722625732422
1770645181.2632964,forward,50,0.0,0.0,0.0,46.12527084350586,13.931907653808594,-0.581593930721283,-0.5339232466507654,-9.560367641164165e-06,1.8466051072384584,47.64188365729134,-122.13998381206018,122.26966857910156
1770645181.3270156,idle,0.0,0.0,0.0,0.0,46.08381271362305,14.078340530395508,-0.6963632702827454,-0.5463507407321566,-9.59437474821004e-06,1.8466055642015413,47.64188347372933,-122.13998285347459,122.3567123413086
1770645181.3898945,idle,0.0,0.0,0.0,0.0,46.03096008300781,14.2650146484375,-0.8260858654975891,-0.4285833281528184,-1.6553849051084338e-05,1.8466037614692563,47.64188333641872,-122.13998213601687,122.41217803955078
1770645181.450507,idle,0.0,0.0,0.0,0.0,45.9808235168457,14.442123413085938,-0.9226548671722412,-0.28288795524965366,-2.238374393223312e-05,1.8466018970046352,47.64188306938083,-122.1399807406356,122.50895690917969
1770645181.51197,idle,0.0,0.0,0.0,0.0,45.9321174621582,14.614164352416992,-0.9953033328056335,-0.1411230391358137,-2.6627502489443515e-05,1.8465990027899732,47.64188272692946,-122.1399789509124,122.62066650390625
1770645181.5767884,idle,0.0,0.0,0.0,0.0,45.88025665283203,14.797313690185547,-1.053389072418213,0.008660196137308248,-2.9826667845154408e-05,1.8465958820838624,47.64188230844715,-122.13997676386475,122.74555969238281
1770645181.6395125,idle,0.0,0.0,0.0,0.0,45.81817626953125,15.016607284545898,-1.0995423793792725,0.14686680803194127,-3.195653053813819e-05,1.846591636637891,47.641881844985434,-122.13997434129796,122.86263275146484
1770645181.7010283,idle,0.0,0.0,0.0,0.0,45.767494201660156,15.195646286010742,-1.1241461038589478,0.21763465624401626,-3.247869436478925e-05,1.8465890249720334,47.64188136687503,-122.13997184245375,122.95568084716797
1770645181.762124,idle,0.0,0.0,0.0,0.0,45.719139099121094,15.36641788482666,-1.1517678499221802,0.25965613894666617,-3.1937296052573254e-05,1.8465883563805512,47.64188087946809,-122.13996929512686,123.02689361572266
1770645181.8258107,idle,0.0,0.0,0.0,0.0,45.67376708984375,15.526651382446289,-1.1851013898849487,0.2816470168534568,-3.090234710766268e-05,1.8465872317884207,47.641880389283344,-122.13996673352133,123.07796478271484
1770645181.88688,idle,0.0,0.0,0.0,0.0,45.629432678222656,15.683290481567383,-1.2233985662460327,0.29007576357734827,-2.9306690493042752e-05,1.8465863532487643,47.64187990342278,-122.13996419394803,123.11006164550781
1770645181.951124,idle,0.0,0.0,0.0,0.0,45.59019470214844,15.821895599365234,-1.2600884437561035,0.2887281963891507,-2.7715812900375792e-05,1.8465871416470063,47.64187943286465,-122.13996173467469,123.13607788085938
1770645182.013807,idle,0.0,0.0,0.0,0.0,45.5484504699707,15.969334602355957,-1.2999818325042725,0.27988238044269514,-2.5568230148152977e-05,1.846587228277233,47.641878989239146,-122.13995941676122,123.16812133789062
1770645182.0769093,idle,0.0,0.0,0.0,0.0,45.513309478759766,16.093490600585938,-1.3329070806503296,0.26757588361313206,-2.397169859268202e-05,1.846588102270962,47.641878576251756,-122.1399572573413,123.20523071289062
1770645182.138578,idle,0.0,0.0,0.0,0.0,45.48080062866211,16.208290100097656,-1.3619126081466675,0.2529620270215565,-2.1845678985702337e-05,1.8465882603202775,47.64187819270191,-122.13995525310234,123.24397277832031
1770645182.2015843,idle,0.0,0.0,0.0,0.0,45.45216369628906,16.30944061279297,-1.3857983350753784,0.23795135555431016,-2.0246980454240307e-05,1.8465881476133787,47.64187783725168,-122.13995339522351,123.28160095214844
1770645182.2636714,idle,0.0,0.0,0.0,0.0,45.42438888549805,16.407564163208008,-1.4071112871170044,0.22179993607986295,-1.8648777055380837e-05,1.8465882148031725,47.64187750804849,-122.1399516745287,123.31639862060547
1770645182.327345,idle,0.0,0.0,0.0,0.0,45.39997863769531,16.493785858154297,-1.4241024255752563,0.20652568860099946,-1.757990409353598e-05,1.8465881571208083,47.64187720344552,-122.13995008248905,123.34749603271484
1770645182.3899136,left,0.0,-50,0.0,0.0,45.37421417236328,16.58479881286621,-1.4400876760482788,0.18948814100121447,-1.5979724309786374e-05,1.8465874706610421,47.64187692189886,-122.13994861140073,123.37458038330078
1770645182.451503,left,0.0,-50,0.0,0.0,45.35319900512695,16.660606384277344,-1.45363187789917,0.17472501642876828,-0.12941799389283773,1.847191985006404,47.64187666217338,-122.13994725387722,123.39769744873047
1770645182.5132792,left,0.0,-50,0.0,0.0,45.341819763183594,16.722774505615234,-1.478771448135376,0.16322707592800664,-0.26411352528151005,1.8492576354220482,47.641876422862374,-122.1399460030396,123.41710662841797
1770645182.5756955,left,50,-50,0.0,0.0,45.34605026245117,16.786678314208984,-1.5253167152404785,0.15208755621854167,-0.36847956534018744,1.852671145119453,47.641876202627714,-122.13994485198363,123.43315887451172
1770645182.637297,left,50,-50,0.0,0.0,45.36870574951172,16.842498779296875,-1.5805976390838623,0.07437719265783624,-0.4293640144504464,1.8866288309579218,47.64187600023427,-122.13994379385582,123.44612884521484
1770645182.6993823,left,50,-50,0.0,0.0,45.41592788696289,16.90785026550293,-1.6531944274902344,-0.06837712684526524,-0.4782933106823265,1.9551933484202209,47.641875838977484,-122.13994283335231,123.46507263183594
1770645182.762052,left,50,-50,0.0,0.0,45.48808670043945,16.98689079284668,-1.7417120933532715,-0.20741806656178305,-0.5196190011113464,2.030249589718272,47.641875801027254,-122.1399419584923,123.50312042236328
1770645182.8234775,forward,50,0.0,0.0,0.0,45.59254837036133,17.099424362182617,-1.8530845642089844,-0.3279170790031428,-0.5552625068182762,2.102953781240024,47.64187595253188,-122.13994113036283,123.55992889404297
1770645182.8865292,idle,0.0,0.0,0.0,0.0,45.68893814086914,17.20965003967285,-1.9448647499084473,-0.3944321336154451,-0.480879717883029,2.1445375585512907,47.64187630289251,-122.13994029098806,123.62749481201172
1770645182.9479232,idle,0.0,0.0,0.0,0.0,45.8101692199707,17.3603515625,-2.049659490585327,-0.3507216990309484,-0.32140528748542846,2.129735693720629,47.64187687828656,-122.13993931439067,123.71080780029297
1770645183.014265,idle,0.0,0.0,0.0,0.0,45.93370056152344,17.521169662475586,-2.134615898132324,-0.20541071788185572,-0.15265896030070408,2.0904518429903405,47.64187766464704,-122.13993807441555,123.808349609375
1770645183.0728881,idle,0.0,0.0,0.0,0.0,46.0517463684082,17.678516387939453,-2.195220708847046,-0.09502898908659124,-0.001415747182080247,2.0782162291827957,47.641878290339186,-122.13993705349824,123.87908935546875
1770645183.1333334,idle,0.0,0.0,0.0,0.0,46.180564880371094,17.853208541870117,-2.2409472465515137,-0.006729242225700723,0.1223509802566401,2.0796092439520106,47.64187933487532,-122.13993523739714,123.98606872558594
1770645183.1958675,idle,0.0,0.0,0.0,0.0,46.2892951965332,18.00284767150879,-2.267529010772705,0.045159815358002044,0.19180617843324327,2.0845866367521295,47.64188043753133,-122.13993315954265,124.08504486083984
1770645183.2589152,idle,0.0,0.0,0.0,0.0,46.4084358215332,18.16987419128418,-2.3031134605407715,0.08410691743458121,0.2404702342211885,2.0899298696882167,47.64188155127047,-122.13993099223646,124.16139221191406
1770645183.3205314,idle,0.0,0.0,0.0,0.0,46.49917984008789,18.299068450927734,-2.3395140171051025,0.10393773749276045,0.26207549398351904,2.0928645499780343,47.64188266411876,-122.13992878061018,124.21680450439453
